Time (sec),Pitch (deg),Roll (deg),Yaw(deg),X-Acceleration (g),Y-Acceleration (g),Z-Acceleration (g),Pitch Rate (deg/sec),Roll Rate (deg/sec),Yaw Rate (deg/sec),Magnetic Field in X direction (uT),Magnetic Field in Y direction (uT),Magnetic Field in Z Direction (uT),Latitude (deg),Longitude (deg),Altitude (m)
688434336.688685,0.428805,0.471710,31.250916,-0.007736,0.008942,0.996902,-0.001723,0.002478,-0.007828,-43.990417,110.017136,-246.901413,nan,nan,nan
688434336.888742,0.425187,0.472921,31.249035,-0.007141,0.006622,0.996628,-0.002209,0.002176,-0.010003,-43.910034,109.749832,-246.173965,nan,nan,nan
688434337.088816,0.430172,0.474858,31.249527,-0.007599,0.007523,0.997513,-0.003742,0.000432,-0.008857,-43.977036,109.213623,-246.633270,nan,nan,nan
688434337.288828,0.432886,0.478203,31.246860,-0.008057,0.008011,0.997162,-0.002639,-0.000189,-0.010784,-44.336334,109.206482,-246.946167,nan,nan,nan
688434337.488792,0.431866,0.480333,31.245924,-0.008423,0.007050,0.996078,-0.003340,-0.001331,-0.009707,-43.895386,109.060410,-247.317139,nan,nan,nan
688434337.688789,0.433236,0.484638,31.241766,-0.007339,0.007202,0.996323,-0.001862,-0.000018,-0.009660,-44.474182,109.921494,-247.094299,nan,nan,nan
688434337.888729,0.433611,0.487506,31.234168,-0.007584,0.006912,0.996368,-0.001054,-0.000238,-0.009487,-43.969559,109.616959,-246.841309,nan,nan,nan
688434338.088555,0.431131,0.486519,31.236057,-0.008133,0.007202,0.996475,-0.002748,0.000582,-0.009945,-43.781326,110.021332,-247.317429,nan,nan,nan
688434338.288734,0.431033,0.488479,31.229856,-0.007217,0.006805,0.996674,-0.003537,-0.000141,-0.010972,-43.488968,109.612076,-246.687637,nan,nan,nan
688434338.488741,0.430138,0.487458,31.232990,-0.008118,0.006866,0.997025,-0.001119,0.002833,-0.009808,-43.603729,109.368240,-246.439896,nan,nan,nan
688434338.688743,0.428916,0.487895,31.230493,-0.008652,0.006851,0.996292,-0.003520,-0.002145,-0.008441,-43.978989,109.380447,-247.284698,nan,nan,nan
688434338.888496,0.428043,0.490134,31.233242,-0.008240,0.007172,0.997513,-0.003336,0.001624,-0.009777,-44.087494,109.207932,-246.790756,nan,nan,nan
688434339.088737,0.429537,0.489665,31.229071,-0.009216,0.007736,0.996811,-0.000525,0.000526,-0.008102,-44.318985,109.479263,-247.269455,nan,nan,nan
688434339.288732,0.428470,0.490447,31.233322,-0.008148,0.007599,0.997772,-0.005553,0.003339,-0.010204,-43.500702,109.799210,-246.847229,nan,nan,nan
688434339.488745,0.422854,0.491510,31.229993,-0.008255,0.006866,0.998215,-0.000519,-0.000992,-0.010618,-43.941299,109.843140,-246.851013,nan,nan,nan
688434339.688814,0.418864,0.489646,31.232319,-0.007492,0.006592,0.996399,-0.002859,0.001863,-0.009861,-43.694733,108.973328,-247.169144,nan,nan,nan
688434339.888754,0.422024,0.493195,31.228598,-0.007767,0.007843,0.997284,-0.003700,0.002879,-0.009710,-43.878601,109.439590,-246.762161,nan,nan,nan
688434340.088722,0.425994,0.489902,31.232547,-0.008011,0.006470,0.997177,-0.003984,0.001013,-0.007188,-43.872604,110.077881,-246.559982,nan,nan,nan
688434340.288757,0.425421,0.487322,31.236748,-0.007629,0.007950,0.995590,-0.003239,0.002114,-0.012991,-43.771484,109.876907,-246.851379,nan,nan,nan
688434340.488717,0.431061,0.487198,31.238104,-0.007828,0.006577,0.996506,-0.003982,0.003179,-0.008479,-44.044083,109.609177,-247.357925,nan,nan,nan
688434340.688776,0.437895,0.487034,31.243378,-0.007278,0.009552,0.996948,-0.003193,-0.001412,-0.009983,-44.018356,109.171814,-246.675201,nan,nan,nan
688434340.888764,0.441708,0.486153,31.250406,-0.007156,0.008850,0.996399,-0.001332,0.001253,-0.011001,-44.026627,109.205032,-246.941574,nan,nan,nan
688434341.088726,0.441116,0.480799,31.251178,-0.007919,0.008087,0.996918,-0.003575,0.002598,-0.009295,-43.920410,109.429993,-246.601105,nan,nan,nan
688434341.288737,0.443302,0.481495,31.251493,-0.007553,0.001556,0.996460,-0.001825,0.002681,-0.009132,-43.668457,109.663239,-246.480484,nan,nan,nan
688434341.488309,0.445408,0.489773,31.262744,-0.004333,0.000122,0.998871,-0.004124,0.006406,-0.009178,-43.768661,109.585098,-246.340836,nan,nan,nan
688434341.688769,0.455768,0.489458,31.260561,-0.008423,-0.011612,0.995926,-0.000755,0.002758,-0.007740,-43.612610,109.612488,-246.695221,nan,nan,nan
688434341.888757,0.435161,0.492476,31.264321,0.000732,-0.076569,0.991226,-0.010010,0.020536,-0.008897,-43.553909,109.109451,-246.868225,nan,nan,nan
688434342.088711,0.321239,0.397511,31.206758,-0.015625,-0.019211,0.963715,-0.034177,-0.043455,0.006097,-42.917740,108.356400,-246.138824,nan,nan,nan
688434342.288728,0.351414,0.403666,30.991072,-0.003479,0.023849,0.978439,-0.023280,0.013776,-0.027901,-42.222839,107.344894,-245.673187,nan,nan,nan
688434342.488760,0.228969,0.379096,30.770893,0.004684,-0.023529,1.011581,0.018828,0.013275,-0.041264,-42.080750,106.331802,-245.644211,nan,nan,nan
688434342.688767,0.384115,0.352827,30.571597,0.038910,-0.007736,0.992523,0.011200,0.013816,-0.044320,-41.648407,105.613525,-245.424225,nan,nan,nan
688434342.888740,0.269345,0.386173,30.480469,-0.022690,0.024445,1.018433,0.001597,-0.060645,-0.011686,-41.326065,103.765945,-245.468979,nan,nan,nan
688434343.088581,0.301497,0.308770,30.429948,-0.029144,-0.000931,1.000702,0.019304,0.023197,-0.001973,-41.498047,102.680405,-245.833359,nan,nan,nan
688434343.288721,0.366744,0.443028,30.610118,0.006714,-0.048096,1.004898,0.010542,0.029689,0.010535,-42.009216,101.152435,-245.994919,nan,nan,nan
688434343.488754,0.393948,0.509372,30.952332,-0.015427,0.014084,1.051254,0.025609,0.003408,0.011161,-42.453613,99.216766,-245.529175,nan,nan,nan
688434343.688894,0.488203,0.326576,31.296370,-0.000259,0.052460,1.011749,0.014888,-0.021161,-0.003707,-43.671310,98.211700,-246.440155,nan,nan,nan
688434343.888847,0.380619,0.498768,30.988529,-0.005264,0.021622,1.054642,0.012226,0.029534,-0.013855,-44.554489,97.098892,-246.596100,nan,nan,nan
688434344.088757,0.344077,0.490315,31.007434,0.001343,-0.032181,0.987900,0.011273,-0.038056,0.000473,-45.829605,96.254211,-247.722519,nan,nan,nan
688434344.288817,0.452036,0.533905,30.755718,-0.010269,-0.007904,0.995728,0.012357,0.001819,-0.065106,-47.694550,95.817764,-248.751328,nan,nan,nan
688434344.488734,0.491782,0.326141,30.740769,0.015167,0.020172,0.956055,0.025147,-0.087458,-0.029990,-49.792618,95.426407,-249.560913,nan,nan,nan
688434344.688898,0.481935,0.245437,30.640470,0.006943,-0.000763,0.983109,0.064516,0.018354,-0.039068,-51.525131,96.598694,-250.807129,nan,nan,nan
688434344.888759,0.639675,0.303146,30.122429,0.014648,0.004364,1.008942,0.002488,0.068405,-0.067439,-52.682281,97.759186,-251.428497,nan,nan,nan
688434345.088765,0.687933,0.162542,29.983153,0.020660,0.022949,1.013870,-0.031090,0.008059,-0.060722,-53.411057,98.618011,-252.335129,nan,nan,nan
688434345.288756,0.729188,0.281095,29.513088,-0.001617,0.022858,0.958389,-0.027147,0.002752,-0.011622,-53.948929,100.043671,-252.539429,nan,nan,nan
688434345.488798,0.780428,0.253339,29.317107,0.001175,0.018829,0.956100,0.004467,-0.018426,-0.037056,-53.676056,101.726334,-252.057098,nan,nan,nan
688434345.688918,0.712418,0.248039,29.082643,-0.020660,0.014389,0.980972,-0.013288,-0.036855,-0.016157,-53.496796,102.433624,-251.842590,nan,nan,nan
688434345.888799,0.780039,0.247444,28.780001,-0.026566,0.023651,0.986557,-0.002749,-0.002824,-0.021168,-53.443756,103.358109,-251.768402,nan,nan,nan
688434346.088793,0.722436,0.229722,28.443422,0.011856,0.026321,0.991135,-0.000612,0.005618,-0.040099,-53.059052,104.732941,-251.070129,nan,nan,nan
688434346.288774,0.647908,0.309859,28.289440,-0.003082,0.003204,0.991241,-0.003450,0.009607,-0.021040,-52.126877,105.425156,-250.314606,nan,nan,nan
688434346.488736,0.551583,0.254461,28.265167,-0.004562,0.002884,0.999237,-0.007799,-0.079084,-0.028621,-51.416489,106.148788,-249.221451,nan,nan,nan
688434346.688841,0.401761,0.130526,28.071040,0.019409,0.016068,1.015839,0.034371,0.082190,-0.037668,-50.748322,106.244949,-248.628754,nan,nan,nan
688434346.888818,0.362055,0.105027,27.623496,-0.002869,0.013458,1.006332,-0.013219,0.018129,-0.043855,-50.469528,106.748672,-248.002487,nan,nan,nan
688434347.088739,0.394292,0.224803,27.246287,-0.005600,-0.012970,0.991638,-0.007414,-0.023392,-0.044932,-49.743378,107.020081,-246.153854,nan,nan,nan
688434347.288811,0.480022,0.397445,26.767385,-0.001343,0.008514,1.002060,-0.025791,0.047703,-0.056694,-49.492691,107.010696,-245.567932,nan,nan,nan
688434347.488790,0.442274,0.224388,26.492888,-0.002960,0.021820,0.985535,0.023013,-0.038799,-0.019124,-49.217651,107.138641,-244.604782,nan,nan,nan
688434347.688807,0.401876,0.233659,26.216154,-0.002716,0.022263,1.009460,-0.006375,-0.003135,-0.026455,-49.533127,106.065628,-242.570633,nan,nan,nan
688434347.888783,0.382729,0.302764,26.105168,0.002777,0.015015,0.993332,-0.012338,-0.004873,-0.031034,-49.707062,105.837173,-242.300674,nan,nan,nan
688434348.088629,0.287967,0.266533,26.123219,0.006668,-0.026367,0.991760,-0.015712,0.011118,-0.014270,-49.556366,105.510223,-241.523773,nan,nan,nan
688434348.288759,0.413516,0.379353,26.152348,-0.004730,0.015121,0.988785,0.028065,-0.012292,-0.001937,-49.940842,105.272308,-240.976089,nan,nan,nan
688434348.488867,0.321167,0.345726,26.292079,0.004791,0.006989,1.000443,-0.017226,-0.010299,-0.032865,-49.881668,105.199493,-240.206955,nan,nan,nan
688434348.688782,0.306923,0.394488,26.647780,-0.007294,-0.030960,1.011368,-0.009996,-0.005228,0.022228,-49.730759,104.364868,-240.221176,nan,nan,nan
688434348.888780,0.370865,0.212712,26.945632,-0.009521,0.019531,0.994644,0.020622,-0.053992,0.031986,-50.143448,104.061218,-240.214111,nan,nan,nan
688434349.088784,0.404353,0.423218,26.905278,-0.012482,-0.020935,1.023880,0.024969,-0.004077,-0.005734,-50.373703,104.160782,-240.181137,nan,nan,nan
688434349.288863,0.473223,0.461153,26.247277,-0.048477,-0.014893,0.969727,-0.011531,-0.056805,-0.053516,-51.146957,105.527542,-239.317154,nan,nan,nan
688434349.488773,0.388964,0.423304,25.208697,-0.027390,0.015244,1.020401,-0.018990,0.004345,-0.099353,-51.613312,107.123001,-238.739746,nan,nan,nan
688434349.688875,0.509966,0.446466,24.693474,-0.033508,-0.017792,0.975494,-0.051855,-0.035033,-0.017441,-51.568665,108.279678,-237.776428,nan,nan,nan
688434349.888820,0.525210,0.354897,24.429973,-0.024216,0.032639,1.008224,0.020921,-0.064269,-0.023956,-51.395309,109.522522,-236.460175,nan,nan,nan
688434350.088795,0.467124,0.520003,24.204833,-0.005600,0.027817,1.001099,-0.011224,-0.013733,-0.011902,-51.782654,109.366791,-235.535812,nan,nan,nan
688434350.288783,0.466021,0.429192,23.995046,-0.014175,0.041000,0.981445,0.017739,0.051685,-0.036906,-51.199936,110.149628,-232.884689,nan,nan,nan
688434350.488782,0.601983,0.348988,23.870826,-0.002533,0.051727,1.000748,-0.007253,0.001140,-0.009487,-51.206757,111.203949,-231.590775,nan,nan,nan
688434350.688842,0.587302,0.305829,23.708458,-0.001862,0.061737,0.995575,0.000945,0.005828,-0.004212,-50.867722,110.870712,-229.441315,nan,nan,nan
688434350.888826,0.610891,0.328361,23.722634,-0.002899,0.042313,0.998001,-0.004291,0.000199,-0.014773,-50.716583,110.755783,-228.565384,nan,nan,nan
688434351.088855,0.604650,0.387892,23.891201,-0.010651,-0.035324,0.997650,-0.007895,0.006201,0.026995,-50.706375,110.698273,-228.915573,nan,nan,nan
688434351.288795,0.547603,0.379892,24.208521,-0.020874,-0.046967,0.998444,-0.003253,-0.054053,0.016232,-50.590195,110.046066,-227.170502,nan,nan,nan
688434351.488827,0.444052,0.545920,24.483367,-0.009109,-0.040405,0.993057,-0.021579,0.028783,0.006512,-51.474548,108.979584,-223.386765,nan,nan,nan
688434351.688824,0.356110,0.569299,25.838254,0.014282,-0.070709,0.950836,-0.028138,0.083260,0.155576,-51.550766,104.532043,-218.089127,nan,nan,nan
688434351.888789,0.245016,0.450140,27.446127,0.019363,0.033234,1.099213,-0.043197,0.108737,0.131832,-53.171036,95.208237,-212.300354,nan,nan,nan
688434352.088821,0.286282,0.343946,29.118024,0.018845,-0.013000,1.029846,-0.036176,-0.027415,0.122282,-55.362015,82.402191,-213.899536,nan,nan,nan
688434352.288780,0.394740,0.397861,30.643829,-0.012085,0.029160,0.995285,-0.022833,-0.006477,0.057804,-56.988113,69.940918,-221.291534,nan,nan,nan
688434352.488812,0.353549,0.524974,30.797813,-0.023605,0.026779,1.008728,-0.004424,0.010701,0.011393,-58.321060,61.465302,-233.090942,nan,nan,nan
688434352.688820,0.471813,0.402699,30.784514,0.013626,0.039948,0.944275,-0.005412,-0.019279,-0.024787,-57.659439,57.039062,-245.809784,nan,nan,nan
688434352.888831,0.556595,0.631481,31.028164,-0.033951,-0.066467,0.992889,0.058000,-0.071469,0.046639,-56.342804,57.522293,-259.361206,nan,nan,nan
688434353.088610,0.454815,0.503971,31.307107,-0.013504,-0.022034,0.921677,0.001320,-0.014508,-0.046111,-54.608444,67.550049,-271.984070,nan,nan,nan
688434353.288790,0.368127,0.627641,31.446872,0.012161,-0.025864,0.822998,-0.132513,0.071633,0.054596,-50.755173,77.166611,-277.489105,nan,nan,nan
688434353.488866,0.295870,0.476956,32.244204,-0.043549,-0.010452,0.928925,-0.086820,-0.167672,0.061374,-46.661774,84.161911,-282.367310,nan,nan,nan
688434353.688799,0.444044,0.460892,32.658024,-0.001923,0.049988,0.909607,-0.049312,-0.050512,0.057782,-43.925247,89.755249,-286.622986,nan,nan,nan
688434353.888799,0.513742,0.475104,33.492920,-0.021362,0.038696,1.083755,0.068528,-0.129759,0.142176,-41.541153,94.171600,-288.028198,nan,nan,nan
688434354.088456,0.562492,0.274155,35.117756,-0.000458,0.038254,0.994446,-0.000543,-0.042965,0.154742,-39.362381,96.529160,-291.217529,nan,nan,nan
688434354.288454,0.548316,0.131504,36.576899,0.042801,0.031494,1.066742,0.043515,0.036043,0.051058,-37.622086,100.699524,-293.445221,nan,nan,nan
688434354.488486,0.508031,0.223754,37.235065,-0.001526,0.032227,0.983017,-0.006497,-0.000438,0.033495,-37.087570,106.967102,-291.068970,nan,nan,nan
688434354.688504,0.536027,0.362726,37.779991,-0.024200,0.038177,1.032867,-0.013342,-0.003956,0.034962,-37.877075,111.850677,-284.192505,nan,nan,nan
688434354.888829,0.582321,0.131991,38.255016,0.020233,-0.002167,1.005737,-0.006845,0.011232,0.014986,-38.877350,112.589142,-276.785522,nan,nan,nan
688434355.088840,0.626825,0.305712,38.545509,0.014664,0.017761,0.992737,-0.023453,0.044427,0.038245,-39.200455,110.296921,-270.611206,nan,nan,nan
688434355.288798,0.643398,0.317149,38.900154,0.001175,0.028061,0.996490,0.010992,-0.024674,0.012285,-39.585449,108.390137,-267.319946,nan,nan,nan
688434355.488856,0.623206,0.272475,39.010060,-0.005447,0.023926,1.001450,-0.011808,0.017131,-0.023544,-39.247467,107.008362,-266.068054,nan,nan,nan
688434355.688877,0.521711,0.179272,38.637835,-0.002197,-0.032318,0.981171,-0.012047,0.013102,-0.062651,-39.735092,107.133148,-265.369324,nan,nan,nan
688434355.888850,0.381821,0.297279,37.796293,-0.015427,-0.024384,0.976974,-0.031897,0.017455,-0.109743,-40.063522,107.723145,-263.931580,nan,nan,nan
688434356.088847,0.443862,0.327686,36.888641,-0.013794,0.005371,0.950836,-0.015787,-0.033351,-0.066312,-40.770874,108.281021,-262.690918,nan,nan,nan
688434356.288833,0.510411,0.289965,36.722148,-0.025757,0.008804,1.057007,-0.045099,-0.001242,0.005610,-40.859955,107.316971,-261.182190,nan,nan,nan
688434356.488879,0.489034,0.215959,36.454057,0.017639,0.001205,0.952866,0.018639,-0.029616,-0.004681,-40.863663,106.472382,-260.151428,nan,nan,nan
688434356.688839,0.681838,0.460197,36.743712,0.018478,0.007462,0.928375,-0.064475,0.158187,0.004815,-40.072891,104.948990,-258.678467,nan,nan,nan
688434356.888887,0.614973,0.348261,37.152772,-0.004135,-0.018585,0.914368,-0.051587,-0.045401,0.049346,-39.565308,102.678696,-257.792786,nan,nan,nan
688434357.088879,0.518858,0.317076,37.780640,0.010925,-0.002075,0.980988,0.009266,0.068476,0.054530,-39.078278,100.224838,-257.663666,nan,nan,nan
688434357.288868,0.556092,0.386176,38.701527,0.015259,-0.005386,1.011185,0.034434,0.015216,0.025512,-39.139496,96.968124,-257.376801,nan,nan,nan
688434357.488870,0.632408,0.238536,39.310355,0.026016,-0.011505,1.014053,0.019355,0.015273,0.016856,-40.318253,93.957626,-257.468567,nan,nan,nan
688434357.688962,0.654940,0.253325,39.755815,0.001999,-0.004822,1.107269,0.044238,-0.026294,-0.026158,-40.925934,92.342224,-257.283569,nan,nan,nan
688434357.888873,0.748547,0.210946,39.484915,0.001389,-0.014847,1.010590,0.071160,-0.010461,-0.090158,-41.941666,91.548447,-257.774323,nan,nan,nan
688434358.088704,0.533411,0.234590,38.515365,0.022858,0.016525,0.951614,0.016732,0.104993,-0.148414,-43.377548,91.617676,-259.580994,nan,nan,nan
688434358.288832,0.504040,0.155589,37.813676,-0.009995,0.012802,0.974380,0.036048,0.015984,-0.092854,-43.863968,92.061478,-260.990662,nan,nan,nan
688434358.488867,0.726976,0.169251,37.772307,0.011887,0.023849,0.958801,-0.049347,-0.019065,0.005487,-44.190170,92.441132,-262.211548,nan,nan,nan
688434358.688849,0.765720,0.288196,37.861964,-0.031967,-0.007599,1.094666,0.047139,-0.049994,0.023441,-44.740143,93.202118,-263.271484,nan,nan,nan
688434358.888862,0.736283,0.233856,38.217425,0.002884,-0.037842,1.014145,-0.040013,0.064813,-0.033052,-45.818588,94.605408,-263.809448,nan,nan,nan
688434359.088860,0.768229,0.261806,38.418634,-0.023438,0.034836,1.076965,0.045054,-0.011689,0.116951,-46.938004,96.040085,-263.919922,nan,nan,nan
688434359.288829,0.859253,0.266731,39.945322,0.017914,0.043335,1.067474,-0.023175,0.095306,0.086517,-48.002533,96.835037,-264.354156,nan,nan,nan
688434359.488868,0.784713,0.333221,41.091469,0.011078,-0.043106,1.042709,0.022147,-0.032863,0.039189,-49.353134,97.419312,-263.072327,nan,nan,nan
688434359.688909,0.654356,0.155403,41.101719,0.034546,0.012344,1.131744,0.066254,-0.032089,-0.047324,-51.299210,98.330536,-262.644348,nan,nan,nan
688434359.889001,0.823575,0.151778,40.748037,-0.031998,0.024597,1.003647,0.034089,-0.003677,-0.014459,-52.620056,98.186935,-262.066284,nan,nan,nan
688434360.088815,0.988271,0.165184,40.676418,0.019897,0.015976,1.127594,0.024048,-0.108076,-0.122330,-53.411621,98.139236,-260.892853,nan,nan,nan
688434360.288998,0.720052,0.207803,39.632392,-0.045258,0.008408,0.986084,-0.074330,-0.128492,-0.029763,-53.724808,98.384659,-260.437622,nan,nan,nan
688434360.488864,0.536682,0.268578,39.108337,-0.020691,0.044678,0.882675,-0.031468,-0.009612,-0.038124,-54.430710,98.752167,-259.332611,nan,nan,nan
688434360.688897,0.450120,0.465204,39.051417,-0.012985,0.048065,1.011002,0.021151,-0.001437,0.022544,-54.355087,98.144058,-258.694031,nan,nan,nan
688434360.887972,0.297307,0.458818,39.257454,-0.011719,0.007706,0.961487,-0.041205,-0.043709,-0.003023,-54.369064,98.348587,-259.062775,nan,nan,nan
688434361.088111,0.304742,0.247788,39.111013,0.015930,-0.023590,0.887482,-0.065691,0.037812,-0.056126,-54.700699,98.217041,-258.124268,nan,nan,nan
688434361.288219,0.255393,0.273120,39.281992,-0.023697,0.002090,1.067703,0.044382,0.037942,0.063626,-55.220459,98.344955,-257.430359,nan,nan,nan
688434361.488348,0.322511,0.249918,40.569794,-0.021622,-0.000839,1.105682,-0.006259,-0.067436,0.105911,-55.241821,98.679718,-256.918030,nan,nan,nan
688434361.688437,0.284664,0.174069,41.603011,0.025848,-0.034653,1.067459,0.003931,-0.048091,0.026814,-55.565399,97.988037,-256.710999,nan,nan,nan
688434361.888625,0.344699,0.266337,41.608747,0.020477,0.029602,0.937668,-0.057712,0.066426,-0.048192,-55.941315,98.307251,-256.271973,nan,nan,nan
688434362.088806,0.383851,0.246909,41.359897,0.010651,0.039154,0.981903,0.002057,0.030499,-0.005221,-57.361542,99.143173,-255.235001,nan,nan,nan
688434362.288901,0.420401,0.277645,41.288271,-0.009918,0.023849,1.048706,0.017184,0.028599,-0.008733,-58.152161,99.078568,-254.841354,nan,nan,nan
688434362.488965,0.403127,0.234121,40.758064,-0.010620,-0.013580,1.012024,-0.002494,-0.016179,-0.039442,-59.422913,99.659805,-253.923950,nan,nan,nan
688434362.688961,0.371684,0.298321,40.334376,0.027847,-0.025421,0.937866,0.047176,0.105774,-0.096556,-60.092056,100.634094,-253.849030,nan,nan,nan
688434362.888997,0.393496,0.578414,39.714707,-0.061523,-0.005569,1.036118,-0.002876,0.051486,-0.058057,-60.992004,101.143646,-254.403732,nan,nan,nan
688434363.088772,0.374670,0.380200,39.623755,-0.020279,0.012161,1.006012,0.009331,0.046641,0.019253,-61.615631,101.712234,-253.330032,nan,nan,nan
688434363.288972,0.288555,0.384168,39.749600,-0.026566,0.009674,0.929062,-0.019331,-0.076760,-0.001916,-62.484955,102.138306,-253.425629,nan,nan,nan
688434363.488962,0.320873,0.253635,39.809341,0.001343,0.007996,0.986145,-0.010488,-0.020378,0.006605,-63.541824,102.075974,-252.902893,nan,nan,nan
688434363.688880,0.395851,0.244693,39.747294,-0.022415,0.008591,1.090042,0.005295,-0.010827,-0.005077,-64.390564,102.039688,-252.928146,nan,nan,nan
688434363.888991,0.421152,0.239865,39.768095,0.001862,-0.019897,0.942764,-0.049411,0.029685,-0.020758,-64.960266,102.875580,-253.337006,nan,nan,nan
688434364.088917,0.444087,0.400359,39.850076,0.012741,-0.004059,1.010071,0.016203,0.045561,0.005620,-65.288132,102.567474,-252.070404,nan,nan,nan
688434364.288915,0.463609,0.438922,40.522695,0.012299,0.024658,0.996307,-0.010446,-0.008169,0.021979,-65.238953,102.094040,-251.430389,nan,nan,nan
688434364.488910,0.504780,0.382628,40.719684,0.009933,0.026840,0.950790,-0.042598,-0.024367,-0.018281,-65.494064,101.190933,-250.414825,nan,nan,nan
688434364.688950,0.447527,0.405190,40.580233,-0.010925,-0.021332,1.043762,0.008674,0.007386,-0.013831,-65.912811,101.373856,-250.150085,nan,nan,nan
688434364.888915,0.424124,0.377318,40.271890,-0.005096,-0.018890,0.995163,0.045811,-0.013885,-0.040131,-66.360001,100.275787,-249.425873,nan,nan,nan
688434365.089031,0.447203,0.273304,40.441831,0.008224,0.011780,1.031036,-0.008402,0.057085,0.013333,-66.537354,99.026489,-249.447998,nan,nan,nan
688434365.288932,0.462595,0.373326,40.386816,-0.018448,-0.020264,1.022659,-0.080909,0.017484,0.014628,-65.851868,98.062225,-249.633240,nan,nan,nan
688434365.488958,0.409476,0.227131,40.497012,-0.029434,0.011322,0.899673,-0.056394,-0.077847,0.009212,-65.426270,97.111984,-249.707458,nan,nan,nan
688434365.688922,0.397700,0.372214,41.127439,0.005249,0.022324,0.966232,-0.047721,0.061559,0.035570,-64.239227,96.022217,-249.561768,nan,nan,nan
688434365.888943,0.432980,0.382953,41.336016,-0.010834,0.026657,0.975143,-0.053998,0.028799,-0.007510,-63.279678,95.052719,-249.644836,nan,nan,nan
688434366.088924,0.526220,0.106705,41.535413,0.023056,0.002914,0.957947,0.003407,-0.010676,0.033854,-62.019714,94.209381,-250.467422,nan,nan,nan
688434366.288933,0.516993,0.059558,42.073372,0.009598,0.038986,1.092651,0.016508,-0.014242,0.024713,-60.986023,93.933990,-250.651657,nan,nan,nan
688434366.488941,0.520143,0.126452,42.365148,-0.008835,0.004593,0.995911,-0.040605,-0.008267,0.005144,-59.572845,94.339722,-251.713364,nan,nan,nan
688434366.688950,0.570920,0.049977,42.409523,0.021240,0.057022,1.040680,0.015985,0.012415,-0.012129,-58.683899,94.296173,-252.528290,nan,nan,nan
688434366.888032,0.577120,0.069586,42.352835,0.012329,0.018219,1.047455,0.017329,0.065108,-0.012286,-58.107285,94.828415,-253.335159,nan,nan,nan
688434367.088936,0.546760,0.086215,42.047610,-0.015594,0.001068,1.025620,-0.020879,0.029755,-0.013953,-57.104538,95.237167,-253.099304,nan,nan,nan
688434367.288978,0.472424,0.057508,42.025610,-0.008362,0.008789,1.018921,-0.020367,-0.031527,-0.009949,-56.984497,95.553375,-254.103531,nan,nan,nan
688434367.488927,0.501946,0.048577,41.861329,0.002411,0.002106,0.951981,-0.002273,0.009118,-0.033159,-56.266815,96.289703,-254.292572,nan,nan,nan
688434367.688945,0.455301,0.056761,41.325955,0.017365,-0.013519,0.991028,-0.006554,0.051373,-0.074370,-56.315079,96.924545,-254.315277,nan,nan,nan
688434367.888981,0.469927,0.011988,40.615232,-0.000229,0.002075,1.038910,0.007265,0.010167,-0.095202,-55.663086,97.468109,-254.680511,nan,nan,nan
688434368.088770,0.579046,0.122922,39.900332,0.000031,0.003967,1.017960,0.027815,-0.021656,-0.065362,-55.483215,98.156281,-254.361679,nan,nan,nan
688434368.288962,0.576322,-0.021396,39.269380,-0.006287,-0.039398,0.986359,0.001026,-0.006366,-0.070775,-55.573990,99.362305,-254.905685,nan,nan,nan
688434368.488947,0.604718,0.039711,38.531275,-0.020020,-0.016769,0.939667,-0.047490,-0.020900,-0.056751,-55.700302,100.970367,-255.822083,nan,nan,nan
688434368.688943,0.412669,0.068809,38.304458,0.006027,-0.006683,1.020691,0.004232,0.037454,-0.038803,-56.058472,102.212570,-256.550720,nan,nan,nan
688434368.888947,0.377338,-0.029435,37.784855,-0.037796,-0.029007,0.985962,-0.038685,-0.037296,-0.086905,-56.372620,104.598236,-257.512665,nan,nan,nan
688434369.088911,0.443697,-0.017710,37.064505,-0.015076,0.035706,0.969589,-0.077200,-0.011633,-0.037371,-57.023834,107.256912,-257.665283,nan,nan,nan
688434369.288983,0.559975,0.140134,36.824419,0.010590,0.007736,1.082306,0.065836,0.046692,-0.024798,-58.693588,109.601990,-257.396637,nan,nan,nan
688434369.488944,0.517370,0.133373,36.786990,0.011322,-0.004456,1.030884,0.013247,0.047514,-0.018560,-59.336517,113.166687,-256.641266,nan,nan,nan
688434369.688976,0.448644,0.159174,36.981318,0.025955,0.028961,0.940353,0.087933,0.039252,-0.030400,-60.759018,118.093826,-254.692520,nan,nan,nan
688434369.889072,0.462159,0.097647,36.839229,-0.013504,0.024582,0.964294,0.030912,-0.050440,-0.038387,-62.826950,123.504181,-250.686722,nan,nan,nan
688434370.088954,0.604856,0.105179,36.586197,-0.005463,0.010788,0.932053,-0.031894,-0.050398,-0.037115,-65.920959,129.113647,-244.965408,nan,nan,nan
688434370.288982,0.535697,0.064879,36.106548,0.000824,-0.019226,0.989761,0.035363,0.017545,-0.048286,-71.122177,132.913177,-236.923340,nan,nan,nan
688434370.488954,0.304201,0.116377,35.530022,0.002319,0.012756,1.020844,-0.068335,0.036372,-0.091572,-76.243729,133.784622,-227.813583,nan,nan,nan
688434370.688975,0.456197,0.117405,35.258828,-0.013428,0.008331,1.057251,0.022376,-0.012002,0.010316,-79.198212,133.020813,-218.174911,nan,nan,nan
688434370.889087,0.504136,-0.072580,34.983719,0.019257,-0.007721,1.085587,0.020185,0.089544,-0.058996,-78.922501,130.618607,-208.765503,nan,nan,nan
688434371.089011,0.468907,0.014240,35.018836,0.012070,0.021057,1.044373,0.024559,0.010436,-0.003764,-74.407486,123.825668,-198.219910,nan,nan,nan
688434371.289094,0.478360,-0.030463,35.018498,0.038910,0.019501,1.012375,0.004916,-0.037052,-0.042561,-68.512909,115.459335,-190.409821,nan,nan,nan
688434371.488993,0.383255,0.050470,34.904007,-0.014206,0.013657,1.040848,0.012761,0.017752,-0.032047,-63.223328,106.963531,-185.833359,nan,nan,nan
688434371.689069,0.379763,-0.018246,34.856398,-0.011948,0.026428,1.034271,0.000359,-0.047002,-0.016236,-59.278519,98.220581,-182.920349,nan,nan,nan
688434371.888988,0.444230,0.137325,35.043262,-0.008209,0.019196,1.047150,0.019998,-0.030317,0.047883,-56.368942,88.216858,-182.544510,nan,nan,nan
688434372.088948,0.510207,0.089896,35.274911,0.002380,0.007111,0.986099,-0.007915,0.030462,-0.006264,-56.394623,77.952759,-186.740005,nan,nan,nan
688434372.289139,0.525913,0.006737,35.680108,-0.007751,-0.008286,0.991287,0.003267,0.007126,0.040860,-59.042801,67.914337,-193.632950,nan,nan,nan
688434372.488981,0.398244,0.085123,35.694789,-0.040131,-0.009674,0.954971,-0.019919,-0.007084,-0.006840,-63.350754,59.988831,-205.851486,nan,nan,nan
688434372.689024,0.384247,0.197745,35.628729,-0.024460,-0.040680,0.974060,0.005384,-0.019995,-0.036628,-67.536850,52.543198,-218.349609,nan,nan,nan
688434372.888985,0.358127,0.018477,35.340410,0.016464,-0.028336,0.997559,-0.060602,0.084117,-0.059856,-68.525589,44.685272,-239.403748,nan,nan,nan
688434373.088775,0.300949,0.326692,34.831388,0.002594,0.032639,0.924728,-0.131794,0.031403,-0.043106,-65.907501,47.503326,-267.348297,nan,nan,nan
688434373.289103,0.213270,0.076298,34.304730,-0.005981,-0.001190,0.903076,-0.078508,0.042585,-0.067213,-61.540573,61.371140,-289.366333,nan,nan,nan
688434373.489087,0.385881,0.222712,33.863845,-0.027542,0.030258,0.906036,-0.023255,0.051314,-0.025055,-57.832275,80.040604,-299.759369,nan,nan,nan
688434373.689042,0.593067,0.123007,34.200147,0.002197,0.006592,0.940430,-0.026111,-0.037824,0.034002,-59.288025,97.758514,-302.927368,nan,nan,nan
688434373.889001,0.586438,0.162173,34.393772,-0.028091,0.002441,0.930878,-0.052939,-0.039511,-0.018633,-63.781357,113.583694,-296.229645,nan,nan,nan
688434374.088942,0.642629,0.320156,34.358844,-0.035812,0.038620,0.991226,-0.033260,-0.012796,0.011143,-65.934204,121.164734,-281.583252,nan,nan,nan
688434374.288986,0.822014,0.312137,34.479097,0.005798,0.015564,1.075745,0.051189,-0.026982,0.077401,-66.762421,118.776443,-269.639221,nan,nan,nan
688434374.488954,0.625331,0.188983,34.979734,0.018356,-0.006943,0.978760,0.000148,0.015919,0.050185,-67.149704,115.584671,-263.235992,nan,nan,nan
688434374.688987,0.566173,0.131663,35.543223,-0.012451,0.031326,0.865128,-0.058737,-0.055744,0.043915,-66.320206,111.788864,-257.986877,nan,nan,nan
688434374.888968,0.699164,0.036935,35.645339,-0.025314,-0.015488,0.935425,-0.034566,-0.065809,-0.019071,-66.598434,108.385818,-256.415649,nan,nan,nan
688434375.088988,0.667143,0.037346,35.388199,-0.037598,0.016342,0.995453,-0.063720,-0.030329,-0.017348,-66.229889,105.857544,-254.882294,nan,nan,nan
688434375.289097,0.376653,0.020861,34.891617,0.024200,0.006088,1.135101,0.076866,0.138627,-0.125220,-66.483597,104.734756,-253.679688,nan,nan,nan
688434375.489022,0.283311,-0.115409,33.378780,-0.045547,0.001724,0.957916,-0.055752,-0.061450,-0.155022,-67.622223,103.781815,-253.330994,nan,nan,nan
688434375.689031,0.100618,-0.103632,32.505064,0.016342,0.017258,0.960571,-0.032177,-0.017379,-0.021767,-68.734192,102.185974,-253.048096,nan,nan,nan
688434375.889023,0.144534,-0.131709,32.688882,0.012909,0.011734,0.823471,-0.040510,0.084192,0.033155,-69.742249,100.613693,-252.218094,nan,nan,nan
688434376.088985,0.518817,-0.039636,32.923660,0.013580,0.009491,1.066727,-0.014812,0.084954,-0.023141,-70.790710,98.871597,-251.766922,nan,nan,nan
688434376.289063,0.400615,0.123852,33.343752,0.031021,0.003632,1.022385,0.003112,0.189754,0.052688,-71.502457,97.682190,-251.355057,nan,nan,nan
688434376.489013,0.294249,0.069066,34.264756,0.012024,0.017838,1.158768,0.126096,0.032192,0.046396,-71.919998,96.620224,-250.442627,nan,nan,nan
688434376.689001,0.289424,0.174599,34.252723,-0.041122,-0.018036,0.845581,-0.052222,-0.030256,-0.018169,-72.367966,96.039154,-250.098358,nan,nan,nan
688434376.889002,0.146750,0.046458,34.088021,-0.033051,-0.011612,0.902496,-0.006916,-0.117739,0.009465,-71.648346,96.234528,-250.560516,nan,nan,nan
688434377.088965,0.043462,0.042129,33.802063,0.013199,-0.005707,1.073807,0.090977,0.009722,-0.066306,-70.689957,96.920715,-249.503418,nan,nan,nan
688434377.289136,0.144174,-0.240189,31.782116,0.025513,-0.006454,0.911301,-0.043226,0.049400,-0.262404,-70.660873,98.802567,-249.550293,nan,nan,nan
688434377.489103,0.193133,-0.122823,29.850019,-0.004517,-0.022049,1.067932,0.040540,-0.036393,-0.053682,-71.476913,101.620697,-249.524673,nan,nan,nan
688434377.689091,0.113529,0.053627,29.768583,-0.009293,-0.011520,1.052277,0.114473,-0.069760,-0.012744,-73.700241,104.434738,-248.053482,nan,nan,nan
688434377.889126,-0.041021,0.023981,29.315403,-0.051163,0.045731,0.980347,-0.175869,-0.144576,-0.119288,-75.468124,103.908783,-245.363525,nan,nan,nan
688434378.088873,-0.012149,0.187675,28.174544,-0.014206,-0.001129,1.046051,0.010722,-0.008076,-0.039506,-77.003403,95.993835,-246.625092,nan,nan,nan
688434378.289058,0.126648,0.102403,28.112241,-0.013794,0.025620,0.939743,-0.055454,0.120431,0.054044,-75.789825,94.795929,-255.570190,nan,nan,nan
688434378.489073,0.227606,0.104167,28.473228,-0.003372,0.029587,1.070801,0.012017,0.094838,0.001173,-74.928085,96.597183,-260.237549,nan,nan,nan
688434378.689192,0.174158,0.186983,28.727341,-0.031433,0.001907,1.083282,0.023290,0.033357,0.012455,-74.253723,98.746918,-262.372101,nan,nan,nan
688434378.889053,0.313237,0.193680,28.790959,0.000229,-0.013687,1.069672,0.033411,-0.026892,0.034352,-73.383865,100.997711,-261.889008,nan,nan,nan
688434379.089069,0.464678,0.303852,29.716175,0.009048,0.009705,1.061615,0.121870,0.032433,0.088885,-71.775589,101.319244,-259.678833,nan,nan,nan
688434379.289107,0.264695,0.276927,30.098460,-0.012482,-0.004211,1.022812,-0.001742,-0.040308,-0.018384,-70.051712,100.624512,-256.983398,nan,nan,nan
688434379.489069,0.155876,-0.242591,30.089524,-0.008057,-0.001205,0.856979,-0.007939,0.007062,-0.020322,-68.903397,99.171036,-254.516785,nan,nan,nan
688434379.689061,0.525378,0.193843,30.255180,0.017059,0.042725,0.945572,-0.004173,-0.044004,0.008830,-68.380081,97.616516,-253.930084,nan,nan,nan
688434379.889179,0.809769,0.182152,31.556804,-0.006027,0.022522,0.968338,-0.038530,-0.030710,0.157030,-68.154083,96.081299,-253.200150,nan,nan,nan
688434380.089063,0.517150,0.151715,33.218572,0.016891,-0.036652,0.961426,0.022898,0.010135,0.107083,-67.151611,95.403549,-252.027298,nan,nan,nan
688434380.289097,0.419426,0.343530,34.188020,0.001663,0.026825,1.008194,-0.004275,-0.044883,0.046204,-67.484116,95.284348,-251.886353,nan,nan,nan
688434380.489044,0.453025,0.329072,34.714071,0.011581,0.063644,0.987228,-0.097604,0.056201,0.003739,-67.603821,95.279892,-251.754395,nan,nan,nan
688434380.689039,0.610199,0.338372,35.027046,0.020294,0.007156,0.965240,-0.025871,0.026382,0.037158,-68.118164,95.026184,-251.482681,nan,nan,nan
688434380.889096,0.637084,0.469499,35.104089,-0.045074,-0.003220,1.090942,0.012109,-0.016356,0.001534,-68.516983,95.258163,-251.102966,nan,nan,nan
688434381.089123,0.475222,0.419741,34.496448,-0.021561,0.030869,1.073395,-0.005558,-0.012529,-0.039161,-69.154205,95.942535,-251.125015,nan,nan,nan
688434381.289066,0.663027,0.471954,34.273511,-0.071014,-0.013580,1.114548,0.055267,-0.065655,0.006764,-69.299805,96.291977,-250.439606,nan,nan,nan
688434381.489057,0.625728,0.529717,34.678225,-0.041519,-0.010406,0.946960,-0.055154,-0.032487,-0.015169,-69.140549,96.453400,-250.638855,nan,nan,nan
688434381.689077,0.646718,0.494787,34.631041,-0.057755,0.038605,0.910263,-0.006355,-0.051618,0.028414,-69.849319,97.105011,-250.789520,nan,nan,nan
688434381.889037,0.635447,0.565711,34.802446,-0.033386,0.030212,0.996338,-0.026593,-0.015246,0.030215,-69.283875,97.213806,-250.490555,nan,nan,nan
688434382.089126,0.565301,0.356243,35.801971,-0.036774,-0.010788,1.021729,0.026091,-0.059685,0.119811,-69.597397,97.748276,-249.851028,nan,nan,nan
688434382.289044,0.474243,0.450579,36.509431,0.016159,-0.009293,1.052979,-0.030072,-0.019422,0.020089,-68.894547,98.241196,-249.654282,nan,nan,nan
688434382.489070,0.541206,0.268164,36.834374,-0.027588,0.028061,0.996094,-0.035810,-0.082639,0.036778,-69.094803,98.263580,-249.811356,nan,nan,nan
688434382.689091,0.628204,0.379850,37.269475,-0.004303,0.018219,1.051849,0.055899,-0.068657,0.030633,-69.473328,98.218735,-248.999359,nan,nan,nan
688434382.889021,0.698973,0.341599,37.141190,0.014389,-0.001389,1.060333,-0.022979,0.054036,-0.071050,-69.772507,97.897125,-248.669937,nan,nan,nan
688434383.088900,0.617603,0.278182,36.318772,0.026062,0.018143,0.909256,-0.036241,0.027852,-0.107565,-69.870071,97.130463,-248.331238,nan,nan,nan
688434383.289045,0.558336,0.567285,35.619228,-0.053207,0.017715,0.869980,-0.017389,-0.039018,-0.040428,-70.621902,96.531799,-247.802444,nan,nan,nan
688434383.489066,0.707807,0.590288,35.517314,-0.042221,0.034286,1.058563,0.051248,-0.031951,0.000555,-70.844589,95.680984,-248.352432,nan,nan,nan
688434383.689048,0.526423,0.334056,35.676019,-0.035934,-0.006622,0.884995,0.012372,-0.134459,-0.037745,-71.017685,95.176422,-248.994812,nan,nan,nan
688434383.889045,0.450455,0.440319,33.752850,-0.033569,-0.000534,0.898346,-0.106006,-0.049706,-0.161520,-71.408997,94.888733,-249.234955,nan,nan,nan
688434384.089144,0.601556,0.475152,31.700144,-0.046555,0.016754,0.867722,0.048006,-0.048275,-0.040935,-71.329590,94.761871,-249.963287,nan,nan,nan
688434384.289066,0.563505,0.567223,31.491960,-0.032303,0.013840,1.162384,-0.043783,-0.018230,0.024574,-70.627762,94.307465,-249.915634,nan,nan,nan
688434384.489044,0.546854,0.377792,31.518383,0.002625,0.001450,0.976242,0.027361,0.083723,0.013058,-69.936066,94.212769,-250.439270,nan,nan,nan
688434384.689061,0.674407,0.339821,31.414910,-0.019150,-0.003372,1.024307,0.017458,-0.037647,-0.015808,-69.111511,94.449554,-251.455582,nan,nan,nan
688434384.889050,0.633275,0.334213,32.720694,0.010635,0.005432,1.001724,-0.037091,0.046217,0.157303,-68.286392,93.951340,-251.367355,nan,nan,nan
688434385.089084,0.776528,0.356971,34.411905,0.003204,0.012177,1.127304,0.085679,0.040538,0.113395,-66.599060,94.208847,-252.541702,nan,nan,nan
688434385.289082,0.732661,0.311095,34.829200,-0.002975,-0.067505,1.009872,-0.082794,-0.006742,-0.044370,-65.750565,93.868454,-252.880402,nan,nan,nan
688434385.489075,0.641715,0.292941,34.942625,0.000473,0.016327,0.943405,-0.118983,0.128940,-0.004137,-63.872665,94.018494,-254.588974,nan,nan,nan
688434385.689100,0.655537,0.335029,35.508449,-0.047028,0.019394,1.030823,0.023066,0.034653,0.062393,-60.798370,96.758286,-255.684250,nan,nan,nan
688434385.889097,0.891904,0.346793,36.438339,-0.010132,0.008774,0.787628,-0.028249,0.028639,0.099596,-58.612061,99.212662,-253.690231,nan,nan,nan
688434386.089074,0.646317,0.314439,37.260153,0.026642,-0.040390,1.006088,-0.136557,-0.046999,0.031477,-55.828842,103.142670,-245.015091,nan,nan,nan
688434386.289073,0.620593,0.263605,37.129016,0.018509,0.015152,1.219254,-0.077341,0.048958,-0.048192,-54.566223,92.308807,-230.034119,nan,nan,nan
688434386.489071,0.532479,0.272008,37.165425,-0.051483,0.021790,1.102295,-0.038819,-0.072440,0.007813,-57.781204,85.085373,-247.691605,nan,nan,nan
688434386.689096,0.457832,0.233849,36.639421,-0.049530,0.003693,1.027527,0.025851,-0.005073,-0.102874,-59.094833,101.104568,-261.971069,nan,nan,nan
688434386.889040,0.602207,0.053976,35.116526,-0.039963,-0.043228,1.161392,0.192091,-0.094263,-0.154870,-58.016891,113.692245,-260.235474,nan,nan,nan
688434387.089138,0.604055,0.121297,34.537580,0.000687,0.020020,0.890778,-0.113951,0.066055,-0.062827,-58.938568,113.700714,-255.418793,nan,nan,nan
688434387.289088,0.545451,0.221648,33.956142,-0.003143,0.007599,0.845978,-0.091533,0.033115,-0.076414,-58.948929,113.942566,-253.859665,nan,nan,nan
688434387.489079,0.206481,0.094924,34.489914,-0.012100,-0.003265,1.068985,-0.028707,-0.056778,0.096463,-59.550720,114.796906,-250.960037,nan,nan,nan
688434387.689106,-0.161784,0.235519,35.575545,0.048401,0.008484,1.082321,-0.032849,-0.007911,-0.026596,-59.575119,116.176910,-245.806335,nan,nan,nan
688434387.889073,-0.032065,0.382104,35.637765,-0.009583,-0.005493,1.057159,0.042653,0.047947,-0.030890,-57.759064,116.673401,-237.978668,nan,nan,nan
688434388.088940,0.190599,0.323102,35.404701,-0.017365,-0.030014,1.004883,0.101254,-0.126159,-0.068530,-56.914825,112.377609,-229.269165,nan,nan,nan
688434388.289147,0.544683,0.168345,34.768742,0.025162,0.009628,1.073715,0.018470,0.102844,-0.110463,-54.115585,101.608429,-224.543015,nan,nan,nan
688434388.489104,0.613479,0.210443,33.752608,0.008362,0.048599,1.033997,0.010497,0.018715,-0.096984,-51.752213,91.649979,-226.454666,nan,nan,nan
688434388.689269,0.526834,0.122628,33.016496,-0.002121,0.042374,1.112930,0.029806,-0.041091,-0.063023,-52.827362,86.871857,-235.152679,nan,nan,nan
688434388.889137,0.475463,0.350672,32.686955,0.001160,0.017258,0.951462,-0.033586,0.001864,-0.055417,-56.389374,86.053085,-242.880219,nan,nan,nan
688434389.089114,0.352743,0.353844,32.120577,-0.060104,-0.026016,1.023529,0.014375,-0.057612,-0.024934,-59.680115,88.445282,-251.011139,nan,nan,nan
688434389.289121,0.431262,0.546197,32.169108,-0.001465,0.032104,1.099319,0.036335,-0.017804,0.069562,-59.226517,95.318893,-251.861420,nan,nan,nan
688434389.488288,0.497119,0.506129,32.869272,0.006607,0.019073,0.866013,-0.015026,-0.062897,0.017602,-56.258911,96.295364,-248.537231,nan,nan,nan
688434389.689216,0.263526,0.676682,33.150929,-0.051086,-0.013016,0.935989,0.016691,-0.016937,-0.005552,-54.361206,96.569412,-248.418243,nan,nan,nan
688434389.889122,0.135839,0.454404,32.926589,-0.021790,-0.004715,1.035110,-0.014301,-0.055585,-0.040777,-52.948837,96.821075,-248.402634,nan,nan,nan
688434390.089192,0.094874,0.433993,32.407152,-0.044785,-0.019913,0.892822,-0.119884,-0.004103,-0.059856,-52.270325,97.974854,-249.422836,nan,nan,nan
688434390.289282,0.315620,0.549611,32.125595,-0.047195,0.025757,0.870316,-0.071869,0.028040,-0.049682,-51.845840,99.472244,-249.896072,nan,nan,nan
688434390.489158,0.524500,0.424865,31.475889,-0.012756,0.000870,1.139038,0.048313,0.019045,-0.038491,-51.818390,101.015350,-250.137451,nan,nan,nan
688434390.689190,0.378714,0.418656,31.324897,0.001328,-0.000519,0.904419,-0.008734,-0.005871,-0.035781,-51.444016,102.733704,-250.462021,nan,nan,nan
688434390.889293,0.555401,0.498696,31.260152,0.004959,0.019913,0.938675,-0.000812,-0.053669,-0.045283,-52.050583,104.857407,-250.251373,nan,nan,nan
688434391.089187,0.513529,0.424582,31.212012,-0.007233,0.024094,0.981323,-0.040607,0.092701,-0.034531,-52.599396,106.566666,-250.638443,nan,nan,nan
688434391.289106,0.338602,0.410525,30.611369,-0.012894,0.013611,1.049988,0.014211,-0.016298,-0.194748,-53.830078,108.344879,-250.482315,nan,nan,nan
688434391.488736,0.424399,0.195350,28.965480,0.006195,0.010468,0.942383,-0.009738,0.039135,-0.192622,-55.155441,110.411652,-250.062119,nan,nan,nan
688434391.688525,0.507179,0.282106,28.043912,-0.030426,0.016769,0.896622,-0.053813,-0.032364,0.002610,-56.958206,111.231079,-249.637405,nan,nan,nan
688434391.889329,0.365997,0.229119,27.954144,-0.006607,0.010666,1.053101,0.049585,0.037735,0.013555,-57.930893,111.870712,-249.156372,nan,nan,nan
688434392.089167,0.362003,0.406842,27.954508,-0.027969,-0.013123,0.969498,-0.021603,0.036795,0.013383,-58.676910,112.243469,-248.276154,nan,nan,nan
688434392.289136,0.296202,0.255049,27.811314,0.026947,0.021759,1.029053,0.026044,0.130279,-0.019801,-59.692810,112.879349,-247.746384,nan,nan,nan
688434392.489118,0.340755,0.300771,28.770245,0.004623,0.026352,0.976212,-0.016905,0.093932,0.147199,-59.995712,112.264740,-246.723297,nan,nan,nan
688434392.689151,0.262938,0.116469,30.145596,-0.037689,-0.009171,1.021591,-0.020149,-0.023320,0.126835,-59.829834,112.492065,-246.543152,nan,nan,nan
688434392.889128,0.284894,0.174792,30.728691,0.002121,0.009537,1.070312,0.027871,-0.029088,-0.030216,-59.626541,111.615707,-245.860519,nan,nan,nan
688434393.089043,0.379002,0.159855,30.805316,-0.001694,0.002441,1.000061,0.001555,-0.033216,-0.007339,-59.743103,112.138687,-244.436157,nan,nan,nan
688434393.289111,0.414244,0.182335,30.836167,-0.002060,-0.025925,1.059509,0.037424,-0.038655,-0.002859,-59.862045,111.823761,-243.479340,nan,nan,nan
688434393.489138,0.467438,0.197109,30.346367,-0.013184,0.016617,0.998108,-0.003675,-0.104151,-0.220360,-60.434753,111.714874,-243.108398,nan,nan,nan
688434393.689114,0.415560,0.201707,28.217681,0.016617,-0.000977,1.027695,0.042413,0.022392,-0.194003,-61.693390,111.767334,-241.447067,nan,nan,nan
688434393.889231,0.461650,0.170592,27.054277,-0.017563,0.009186,1.087601,0.074708,-0.030593,-0.073211,-63.058456,111.613602,-240.404633,nan,nan,nan
688434394.089138,0.510157,0.102421,27.034031,-0.031845,0.037308,1.113266,-0.029178,-0.054366,0.015285,-63.767685,111.926468,-239.227570,nan,nan,nan
688434394.289132,0.426477,0.088383,27.136643,0.015564,-0.013718,1.062424,0.019438,-0.012253,-0.038515,-64.518417,112.454254,-236.471481,nan,nan,nan
688434394.489120,0.271475,0.124063,27.477571,-0.014694,0.004517,1.047668,0.063369,0.060322,0.017845,-64.853043,111.491470,-230.812042,nan,nan,nan
688434394.689186,0.320179,0.039590,27.952238,-0.003708,0.022659,0.846451,-0.024004,-0.049006,0.052056,-64.901169,106.761292,-224.265656,nan,nan,nan
688434394.889143,0.316522,0.170075,28.150245,-0.023804,0.015549,0.957611,-0.018909,-0.104992,0.036095,-65.537292,96.379257,-222.484192,nan,nan,nan
688434395.089163,0.331234,0.221870,28.529833,-0.001678,0.035660,1.160233,0.029078,0.021951,0.077773,-67.689926,88.325577,-230.772141,nan,nan,nan
688434395.289283,0.417703,0.108953,29.010995,-0.027725,0.012756,0.917664,-0.066754,-0.044511,0.013405,-70.095566,88.828003,-237.654114,nan,nan,nan
688434395.489123,0.342833,0.286588,30.079962,-0.003860,0.019653,1.073227,0.027832,-0.024508,0.139795,-71.558502,87.372681,-239.967178,nan,nan,nan
688434395.689184,0.242032,0.107446,31.869544,-0.005844,0.016113,1.088852,0.024284,-0.057709,0.148089,-70.610352,84.755295,-244.457916,nan,nan,nan
688434395.889184,0.313371,0.112368,33.043990,0.026276,-0.012177,0.928482,-0.035083,0.039557,0.011580,-68.912476,84.678528,-250.717422,nan,nan,nan
688434396.089230,0.190193,0.188629,33.260868,0.012115,0.023026,0.974792,0.040727,-0.021483,0.013740,-66.379471,86.174500,-254.375153,nan,nan,nan
688434396.289148,0.193287,0.173193,33.713022,-0.005188,0.014221,0.940002,-0.033459,0.039244,0.009393,-62.955902,87.987976,-256.427368,nan,nan,nan
688434396.489182,0.199953,0.201263,33.839391,0.000031,-0.081238,0.885620,-0.038744,-0.014806,0.002769,-59.303528,89.838654,-257.193237,nan,nan,nan
688434396.689232,0.455024,0.323480,33.750780,0.022842,-0.002563,0.981430,0.047199,0.051292,-0.035425,-54.073425,91.275421,-256.806335,nan,nan,nan
688434396.889190,0.540549,0.408012,33.755916,-0.024384,0.015335,1.022507,-0.046662,0.027653,-0.023694,-51.665466,93.143967,-255.412689,nan,nan,nan
688434397.089202,0.638445,0.479099,33.645849,0.019363,-0.102997,1.159958,0.066029,0.089499,-0.012048,-50.563843,95.051590,-254.383423,nan,nan,nan
688434397.289225,0.485564,0.497604,33.742143,-0.005753,0.026031,0.956223,-0.026086,0.018759,0.020239,-46.122635,97.096924,-247.011307,nan,nan,nan
688434397.489335,0.382288,0.611459,34.180753,-0.043839,0.008194,1.028915,0.032275,0.029440,0.026080,-41.374405,95.313477,-242.347305,nan,nan,nan
688434397.689245,0.281819,0.377231,34.530951,-0.002670,-0.018234,0.944092,0.004553,-0.095602,0.045685,-37.600388,96.751205,-234.991074,nan,nan,nan
688434397.889249,-0.006118,0.449110,35.113943,0.008865,0.006683,1.403351,0.050711,0.025016,0.070813,-33.431290,92.869278,-223.825714,nan,nan,nan
688434398.089099,0.263382,0.393523,35.618339,-0.033630,0.035187,0.795532,0.065495,-0.076083,0.081221,-38.171356,79.881210,-223.613434,nan,nan,nan
688434398.289192,0.294227,0.550052,36.003740,-0.024017,0.010727,1.061676,-0.060829,-0.000160,-0.015970,-51.937408,72.896790,-235.152298,nan,nan,nan
688434398.489201,0.197398,0.162379,35.519108,0.036453,-0.069550,1.029114,-0.042300,0.048696,-0.139748,-70.238617,69.275803,-244.841660,nan,nan,nan
688434398.689189,0.402914,0.263717,35.228192,-0.026550,0.003647,0.877213,0.039473,-0.088473,0.030771,-80.884415,69.646332,-273.102844,nan,nan,nan
688434398.889305,0.297999,0.206274,35.606232,0.031082,0.044403,0.907593,-0.092728,0.022428,0.030171,-81.500244,92.722717,-285.686157,nan,nan,nan
688434399.089094,0.324196,0.251611,35.446784,-0.010925,0.023453,1.068634,-0.026414,-0.026946,-0.000974,-78.922089,103.848511,-279.470612,nan,nan,nan
688434399.289252,0.513135,0.433017,34.743095,-0.014832,-0.003540,0.974075,0.060064,-0.001047,-0.183760,-75.760773,106.845200,-270.344543,nan,nan,nan
688434399.489170,0.455040,0.303711,32.949935,-0.032623,0.001450,1.030167,-0.075077,-0.078945,-0.139179,-73.956711,105.049011,-264.417511,nan,nan,nan
688434399.689169,0.277982,0.431973,32.155672,-0.040146,0.009659,1.110474,0.059453,-0.008399,-0.050308,-72.777328,102.604675,-261.993835,nan,nan,nan
688434399.889268,0.201495,0.377452,31.806723,-0.013443,-0.005737,0.897263,-0.041072,-0.031649,-0.042808,-71.925262,100.726196,-260.805176,nan,nan,nan
688434400.089310,0.134299,0.297578,31.767349,-0.005356,-0.019547,0.874756,-0.106446,-0.014565,-0.003051,-71.584000,99.372345,-260.832886,nan,nan,nan
688434400.289343,0.041986,0.282307,32.845151,0.008331,0.007233,1.041046,-0.020071,-0.047509,0.151729,-70.867203,97.982803,-261.140076,nan,nan,nan
688434400.489269,0.182111,0.278210,34.642367,0.018692,0.008545,0.970001,0.101571,-0.032427,0.069394,-70.308029,96.725632,-261.750916,nan,nan,nan
688434400.689161,0.196217,0.178056,34.898598,-0.009460,-0.012253,1.010818,0.008563,-0.032736,-0.025397,-69.447861,95.918930,-262.363037,nan,nan,nan
688434400.889326,0.305844,0.313184,34.647352,-0.002502,-0.052383,1.096344,0.017295,-0.005070,-0.031939,-68.875977,95.835587,-263.840271,nan,nan,nan
688434401.089215,0.420796,0.293708,35.235181,-0.040756,0.035339,1.006851,0.139833,-0.078413,0.098027,-67.575378,96.269150,-263.763184,nan,nan,nan
688434401.289190,0.360552,0.179449,36.265335,0.021973,0.033127,0.833633,-0.173891,0.002673,0.059749,-65.775543,96.702988,-265.285370,nan,nan,nan
688434401.489189,0.533258,0.252145,36.486090,0.037079,-0.015045,1.004257,-0.041149,0.043208,-0.017339,-64.601395,97.845032,-265.685669,nan,nan,nan
688434401.689158,0.600322,0.229738,36.493832,-0.008530,0.009277,0.953751,-0.028862,0.005606,0.026729,-64.468521,99.643265,-265.949951,nan,nan,nan
688434401.889352,0.399367,0.124071,36.458255,-0.007187,0.018692,0.963104,-0.073153,-0.025799,-0.084690,-64.800156,101.861801,-265.940460,nan,nan,nan
688434402.089191,0.411699,0.055786,35.138204,-0.030197,0.055130,0.959229,0.027035,-0.161523,-0.071669,-66.922104,102.750793,-264.634033,nan,nan,nan
688434402.289202,0.603368,0.230882,34.276139,-0.038895,0.043701,1.086853,0.060379,-0.050661,0.009797,-67.300781,102.415649,-263.567627,nan,nan,nan
688434402.489215,0.767876,0.313630,34.101431,-0.027893,-0.038864,1.020416,0.019964,0.084543,-0.049040,-67.598969,102.230392,-262.678772,nan,nan,nan
688434402.689192,0.722257,0.243425,33.708061,-0.029419,0.002533,0.980438,-0.025793,-0.011520,-0.030216,-67.967484,101.509598,-262.548279,nan,nan,nan
688434402.889187,0.728166,0.387415,32.678170,-0.031219,0.010605,0.946136,-0.068910,-0.066466,-0.126091,-67.391724,100.973053,-261.560333,nan,nan,nan
688434403.089072,0.565486,0.319166,31.455985,-0.071014,0.005844,1.057907,0.034067,-0.140377,-0.033106,-67.121719,101.128769,-262.151398,nan,nan,nan
688434403.289203,0.501073,0.282269,31.213791,0.023972,0.035614,0.998276,-0.034873,0.122353,-0.054821,-65.581818,102.152695,-262.565796,nan,nan,nan
688434403.489238,0.559833,0.335788,31.256516,0.003204,0.031113,0.962631,-0.043757,-0.064893,0.009460,-63.911880,103.939117,-262.106995,nan,nan,nan
688434403.689215,0.613308,0.333106,31.823608,0.015121,-0.003113,0.964661,-0.011503,0.055709,0.051483,-62.405365,105.543121,-260.790283,nan,nan,nan
688434403.889290,0.838113,0.398368,32.456973,0.004395,0.011215,1.014618,-0.108282,-0.021864,-0.005068,-60.912308,105.526276,-258.578552,nan,nan,nan
688434404.089241,0.366842,0.601443,32.353117,-0.045517,-0.000275,1.127731,-0.019906,0.031815,-0.015442,-59.782272,105.409775,-256.875183,nan,nan,nan
688434404.289244,0.053430,0.488390,32.119661,0.006882,-0.045441,1.006760,-0.049286,0.023825,-0.034079,-58.914429,104.945648,-254.777512,nan,nan,nan
688434404.489218,0.395036,0.275237,32.546407,0.015854,0.025375,1.158569,0.089388,0.030816,0.146756,-58.706238,103.297852,-253.659851,nan,nan,nan
688434404.689228,0.579787,0.219828,34.762171,0.003723,0.021912,0.935486,-0.022273,0.002332,0.145913,-58.608231,101.643646,-252.903976,nan,nan,nan
688434404.889292,0.493050,0.234414,35.359722,-0.041992,-0.031677,0.787720,-0.220893,-0.018740,-0.012966,-58.747635,100.440613,-252.847702,nan,nan,nan
688434405.089279,0.461483,0.353152,35.254666,0.001709,0.010239,1.159668,0.031446,0.062292,-0.016573,-59.861038,99.050476,-252.489716,nan,nan,nan
688434405.289290,0.660278,0.230673,35.322021,-0.013626,0.016495,1.041870,0.187478,-0.017649,-0.027862,-60.845657,98.952393,-253.480896,nan,nan,nan
688434405.488970,0.761368,0.027915,33.563746,-0.012482,0.018524,0.913910,-0.064237,-0.100487,-0.194856,-62.085510,99.779755,-254.154572,nan,nan,nan
688434405.689299,0.468294,0.056683,32.010364,0.001663,0.021851,1.130386,-0.064072,0.025919,-0.100442,-62.634369,101.445648,-254.290466,nan,nan,nan
688434405.889257,0.196201,0.021095,32.062864,0.018356,0.037094,0.996414,-0.013225,0.072835,0.027282,-61.838150,102.641449,-253.571640,nan,nan,nan
688434406.089315,0.360596,0.069010,32.863302,0.021759,0.024643,1.058167,0.066447,0.003859,0.044934,-61.305862,102.843018,-253.010544,nan,nan,nan
688434406.289281,0.314235,0.034060,34.146845,-0.008453,0.029312,0.842773,-0.058184,0.044809,0.084040,-60.883484,102.747009,-253.103104,nan,nan,nan
688434406.489345,0.463342,-0.038236,35.104646,0.064590,-0.017029,0.865738,-0.086602,0.143440,0.006986,-61.000900,102.663177,-253.233475,nan,nan,nan
688434406.689341,0.499890,-0.276700,35.036696,0.002487,-0.012329,1.095688,0.057909,-0.003141,-0.004132,-61.625580,101.942047,-252.451630,nan,nan,nan
688434406.889454,0.439987,-0.191020,34.850128,-0.016052,-0.044571,1.047150,0.014055,-0.007987,-0.020095,-62.665039,100.792572,-252.502930,nan,nan,nan
688434407.089297,0.333317,-0.199244,34.257440,0.014404,-0.012573,1.075882,0.040234,0.050439,-0.096847,-63.846405,100.238129,-252.167038,nan,nan,nan
688434407.289263,0.282725,-0.185937,33.600792,0.017502,0.034409,0.927490,0.018438,0.079761,-0.056082,-64.044098,99.457855,-251.669922,nan,nan,nan
688434407.489240,0.441870,-0.133913,33.487545,-0.037933,0.013550,0.999069,-0.034796,-0.103679,0.028964,-63.738144,99.157700,-250.802368,nan,nan,nan
688434407.689234,0.479292,-0.117963,33.637051,-0.025253,0.023361,1.043213,-0.054955,-0.024563,-0.018168,-63.152161,100.171814,-250.362183,nan,nan,nan
688434407.889253,0.471968,0.008608,32.238042,-0.042984,0.043411,0.921036,-0.071393,0.005405,-0.193301,-64.197998,101.892792,-248.426773,nan,nan,nan
688434408.089066,0.496012,0.145413,30.249026,-0.005981,0.034790,0.973068,0.003231,0.155176,-0.129894,-66.392532,103.371933,-245.595215,nan,nan,nan
688434408.289289,0.550750,0.048728,30.053242,0.013367,0.035812,0.989853,-0.023147,-0.047275,0.044051,-68.656647,103.759842,-243.718658,nan,nan,nan
688434408.489270,0.605735,0.035946,30.221339,0.000839,0.031906,0.978867,-0.067762,-0.013138,0.025470,-69.162933,102.976044,-243.409897,nan,nan,nan
688434408.689356,0.501653,0.104175,30.225635,0.007309,0.019516,0.889023,-0.126462,-0.047251,-0.024693,-70.340424,102.791229,-242.849854,nan,nan,nan
688434408.889257,0.504456,0.143705,30.444217,-0.001801,-0.005768,0.961090,0.088839,0.046731,0.009117,-72.882843,101.590500,-242.066803,nan,nan,nan
688434409.088764,0.420437,0.068672,30.977389,-0.036758,-0.003571,0.988007,-0.001420,0.029272,-0.001785,-74.826752,98.708313,-240.325165,nan,nan,nan
688434409.289285,0.390261,0.191960,31.347186,0.014038,0.019653,1.034714,-0.061059,-0.024696,0.012864,-75.906219,93.567322,-240.487228,nan,nan,nan
688434409.489259,0.316437,0.010286,31.075601,0.000671,0.012543,1.011963,0.017522,0.026712,-0.029015,-75.771378,89.541153,-242.895096,nan,nan,nan
688434409.689261,0.455575,0.311505,31.285302,-0.018936,-0.020798,0.999435,-0.009819,0.016040,0.058736,-74.313049,86.770599,-245.140762,nan,nan,nan
688434409.889429,0.419394,-0.022964,32.799804,-0.001999,-0.003754,1.042694,0.048921,0.003426,0.211634,-73.394119,84.675247,-247.999084,nan,nan,nan
688434410.089389,0.431512,0.158571,34.631111,0.004410,-0.015686,0.960144,0.017969,-0.035570,0.060321,-73.509735,82.730179,-252.005905,nan,nan,nan
688434410.289280,0.299205,-0.065871,34.931267,0.001038,-0.044754,0.983597,0.015206,0.007967,0.007074,-74.936111,83.521011,-255.103226,nan,nan,nan
688434410.489282,0.362609,0.022459,35.211299,0.034973,-0.022171,1.038849,0.001036,-0.058938,-0.037262,-75.485764,83.683823,-254.561905,nan,nan,nan
688434410.689331,0.489346,0.079148,35.286825,0.015244,0.010269,0.963959,0.041260,0.156305,-0.064458,-74.012695,80.581680,-258.829254,nan,nan,nan
688434410.889292,0.227849,0.013940,34.986761,0.004318,-0.021606,0.943878,0.038035,-0.032270,-0.024968,-72.491043,79.968765,-265.954498,nan,nan,nan
688434411.089246,0.289857,-0.075349,34.987383,0.016144,-0.008514,0.921783,-0.063199,-0.026547,-0.059732,-71.715469,83.749298,-273.200562,nan,nan,nan
688434411.289313,0.503722,0.021073,34.897583,-0.020859,-0.010040,0.972855,0.011413,-0.197132,-0.027494,-71.954803,85.457108,-279.693909,nan,nan,nan
688434411.489277,0.274139,0.196284,33.433999,-0.007904,0.003860,0.773239,-0.026599,0.182143,-0.236035,-71.413208,91.993332,-288.182556,nan,nan,nan
688434411.689261,0.202129,0.065170,31.531600,-0.027969,-0.020508,1.049438,0.064217,0.065889,-0.084517,-70.560379,99.526489,-292.389771,nan,nan,nan
688434411.888430,0.360145,0.247647,31.513170,-0.010056,-0.038589,0.976791,0.078440,0.059408,0.008752,-68.331619,108.363205,-290.475128,nan,nan,nan
688434412.089295,-0.054997,-0.047408,31.592270,0.031494,-0.007629,0.942200,0.061457,0.165429,-0.059796,-67.619461,113.590836,-279.327972,nan,nan,nan
688434412.289282,0.033828,0.021727,32.131497,0.031525,0.021881,1.052490,0.014377,0.043356,0.081188,-66.557510,109.899475,-269.736450,nan,nan,nan
688434412.489284,0.201611,0.114608,32.345939,0.022064,-0.002365,1.059402,0.012084,0.018791,-0.033357,-64.908752,106.247757,-265.849945,nan,nan,nan
688434412.689293,0.454927,0.159943,32.585511,0.030609,-0.011642,0.966949,-0.045798,-0.023077,-0.015347,-64.187668,103.063950,-263.030334,nan,nan,nan
688434412.889256,0.535976,0.226463,34.053080,0.010757,0.030884,0.989868,-0.046392,0.111370,0.242802,-63.626175,101.128860,-261.292053,nan,nan,nan
688434413.089132,0.537143,0.185057,36.455089,0.003616,-0.031281,1.086853,0.062594,-0.137745,0.122304,-63.468689,99.871902,-259.809631,nan,nan,nan
688434413.289306,0.483079,0.081962,36.760441,0.010666,-0.015762,1.166351,0.075819,-0.055939,0.039173,-63.396088,99.245407,-259.435364,nan,nan,nan
688434413.489326,0.689851,0.082379,37.134070,0.037643,0.030075,1.008881,-0.058783,-0.026214,0.021207,-64.270844,99.048126,-258.143616,nan,nan,nan
688434413.689397,0.756057,-0.009005,36.179106,-0.032532,-0.004074,0.934097,-0.022395,-0.149707,-0.187385,-65.180939,99.204575,-258.238342,nan,nan,nan
688434413.889301,0.594291,0.098173,35.293860,-0.019272,-0.007401,0.989288,-0.014831,0.055408,-0.063392,-65.460617,99.217590,-257.731262,nan,nan,nan
688434414.089313,0.613050,0.261077,34.349477,-0.020401,0.044388,0.908142,0.007922,0.025090,-0.125701,-65.961975,98.542175,-257.210205,nan,nan,nan
688434414.289285,0.801968,0.088566,35.786029,-0.023285,0.036118,1.133560,-0.096666,-0.189386,0.203626,-65.591232,98.742111,-257.292908,nan,nan,nan
688434414.489329,0.730668,0.138345,37.092891,0.043976,-0.004608,1.059814,-0.030953,-0.000097,-0.044453,-65.356659,97.618866,-257.049011,nan,nan,nan
688434414.689295,0.738138,0.135141,37.121446,-0.004700,0.023438,0.957153,-0.040604,0.130328,-0.013899,-65.563766,96.811462,-256.805969,nan,nan,nan
688434414.889336,0.619275,0.106644,36.885556,0.045822,0.008118,0.937897,-0.044702,0.159548,-0.047696,-66.018234,96.297516,-256.601532,nan,nan,nan
688434415.089309,0.625006,0.215689,36.184682,-0.012070,0.009995,1.111649,0.026386,0.056335,-0.036985,-66.795013,95.393005,-257.035187,nan,nan,nan
688434415.289314,0.776943,0.156720,36.086553,0.006348,0.038727,1.134247,0.016971,-0.020606,-0.014989,-66.895706,94.313660,-256.789856,nan,nan,nan
688434415.489367,0.980309,0.209810,35.864254,0.013870,0.004028,0.994278,-0.025994,-0.108552,-0.040394,-66.489059,93.230957,-257.176239,nan,nan,nan
688434415.689456,0.569335,0.346349,35.901300,0.004761,0.077927,1.069000,-0.270400,-0.153098,0.086378,-66.350525,92.266617,-257.014954,nan,nan,nan
688434415.889302,0.224113,0.129623,36.413925,0.002716,0.012146,0.938690,0.029801,0.063194,0.038145,-66.045059,90.491943,-257.854675,nan,nan,nan
688434416.088862,0.199926,0.391040,36.399978,-0.040283,-0.006287,1.056274,0.077008,-0.008658,-0.024980,-65.692688,89.751999,-259.099670,nan,nan,nan
688434416.289370,0.333636,0.165026,36.281228,-0.037048,0.021530,0.812271,-0.041804,-0.097472,0.007546,-65.092896,89.103165,-260.220703,nan,nan,nan
688434416.489379,0.333079,0.300681,35.867187,-0.011551,0.041672,0.997223,-0.067209,0.041958,-0.025278,-64.218567,90.380890,-261.209961,nan,nan,nan
688434416.689340,0.188270,0.299924,34.218748,-0.018494,0.000366,0.993073,0.015218,0.080010,-0.194679,-63.067520,91.540634,-262.289673,nan,nan,nan
688434416.889370,0.173124,-0.006081,32.482649,0.033722,-0.011642,1.001007,-0.058494,-0.027861,-0.129275,-62.629044,92.752563,-261.422943,nan,nan,nan
